SiteCode,SiteName,Latitude,Longitude,IGBPCode
AE-ADb,Abu Dhabi Eastern Mangroves,24.450883,54.428792,WET
AT-Fue,Fuegen,47.367374,11.854709,GRA
AT-Hnb,Höllengebirge,47.803333,13.591389,BSV
AT-Inn,Innsbruck,47.264096,11.385816,URB
AT-Lan,Laengenfeld,47.061221,10.963454,GRA
AT-Leu,Leutasch,47.378036,11.16278,GRA
AT-Mmg,Mieming,47.316564,10.970089,ENF
AT-Neu,Neustift,47.1166687,11.31750011,GRA
AT-Rtz,Rotholz,47.39472222,11.80472222,GRA
AT-Sch,Scharnitz,47.387291,11.247935,GRA
AT-StA,Stubai Abandoned,47.12528,11.28944,GRA
AT-StM,Stubai Meadow,47.12889,11.30583,GRA
AT-StP,Stubai Pasture,47.13694,11.30361,GRA
AT-VnA,Vienna_Arsenal,48.18183766,16.39085089,URB
BE-Bra,Brasschaat,51.30761,4.51984,MF
BE-Dor,Dorinne,50.311876,4.968113,GRA
BE-Jal,La Robinette (Jalhay),50.56388889,6.073333333,MF
BE-Lcr,Lochristi,51.11218,3.85043,DBF
BE-Lon,Lonzee,50.5516198,4.7462339,CRO
BE-Maa,Maasmechelen,50.979868,5.631851,CSH
BE-Vie,Vielsalm,50.304962,5.998099,MF
BE-Wm1,Westmalle1,51.2964325,4.657248497,CRO
BF-Bon,Bontioli,10.865556,-3.072778,SAV
BF-Btd,Boudtenga,12.46,-1.25,CRO
BG-Crp,Chirpan,42.2149,25.2817,CRO
BG-Rzn,Rozhen,41.6947,24.7387,ENF
BJ-Nan,Nangatchori,9.646983333,1.740883333,CRO
BW-GhG,Ghanzi Grass Site,-21.51,21.74,GRA
BW-GhM,Ghanzi Mixed Site,-21.2,21.75,SAV
BW-Ghz,Ghanzi/Okwa River Crossing,-22.40916667,21.71305556,OSH
BW-Gum,Guma,-18.96472222,22.37111111,WET
BW-Kvb,Kavimba,-18.1076,24.637,SAV
BW-Ma1,Maun,-19.9165,23.56033333,SAV
BW-Mkt,Maun - Kalahari Transect,-19.923,23.594,SAV
BW-Nxr,Nxaraga,-19.54805556,23.17916667,GRA
CD-Ygb,Yangambi,0.814444,24.502472,EBF
CG-Hin,Hinda,-4.68111111,12.0036111,EBF
CG-Kis,Kissoko,-4.791388889,11.98222222,EBF
CG-Tch,Tchizalamou,-4.289166667,11.65641667,SAV
CH-Aws,Alp Weissenstein,46.583194,9.790417,GRA
CH-BaA,Basel Aeschenplatz,47.55123,7.5956,URB
CH-BaK,Basel Klingelbergstrasse,47.56173,7.58049,URB
CH-Cha,Chamau,47.21022222,8.410444444,GRA
CH-Dav,Davos,46.81533,9.85591,ENF
CH-Dsc,Dischma,46.7896991,9.864438203,GRA
CH-Frk,Furka,46.577752,8.421466,GRA
CH-Fru,Früebüel,47.11583333,8.537777778,GRA
CH-Lae,Laegern,47.478333,8.364389,MF
CH-Oe1,Oensingen grassland,47.28583333,7.731944444,GRA
CH-Oe2,Oensingen crop,47.286417,7.73375,CRO
CH-Rtb,Rietholzbach,47.3804,8.9934,GRA
CH-See,Seebodenalp,47.0567,8.4644,GRA
CR-AqC,Aquiares Coffee-Flux,9.93833,-83.72861,EBF
CZ-BK1,Bily Kriz forest,49.50207615,18.53688247,ENF
CZ-BK2,Bily Kriz grassland,49.49443,18.54285,GRA
CZ-KrP,Kresin u Pacova,49.573257,15.078773,CRO
CZ-Lnz,Lanzhot,48.6815483,16.9463317,MF
CZ-RAJ,Rajec,49.4437236,16.6965125,ENF
CZ-Stn,Stitna,49.035975,17.9699,DBF
CZ-wet,Trebon (CZECHWET),49.02465,14.77035,WET
DE-Akm,Anklam,53.86617,13.68342,WET
DE-Amv,Amtsvenn,52.1757,6.95543,WET
DE-Bay,Bayreuth,50.14194,11.86694,ENF
DE-BeC,Berlin TU Campus Charlottenburg,52.512283,13.327855,URB
DE-BeR,Berlin-Rothenburgstrasse,52.457232,13.315827,URB
DE-Bou,Bourtanger Moor,52.655284,7.183765,WET
DE-Brs,Braunschweig,52.29663,10.44871,CRO
DE-Dgw,Dagowsee,53.1514092,13.0542746,WAT
DE-Fen,Fendt,47.83292,11.06056,GRA
DE-Geb,Gebesee,51.09973,10.91463,CRO
DE-Gri,Grillenburg,50.95004,13.51259,GRA
DE-GsB,Grosses Bruch,52.029647,11.10478,GRA
DE-Gwg,Graswang,47.57083,11.03261,GRA
DE-Hai,Hainich,51.0794084,10.4520894,DBF
DE-Har,Hartheim,47.933,7.5981,ENF
DE-Hdn,Heydenhof,53.868253,13.268543,CRO
DE-Hmm,Himmelmoor,53.739807,9.848723,WET
DE-HoH,Hohes Holz,52.08656,11.22235,DBF
DE-Hte,Huetelmoor,54.210278,12.176111,WET
DE-Hzd,Hetzdorf,50.96381,13.48978,DBF
DE-Kan,Kannenbruch,53.784328,10.604899,DBF
DE-Kie,Kienhorst,52.97343,13.64393,ENF
DE-Kli,Klingenberg,50.89306,13.52238,CRO
DE-Lkb,Lackenberg,49.09961667,13.30466667,ENF
DE-Lnf,Leinefelde,51.3282167,10.3678,DBF
DE-Me2,Mehrstedt 2,51.275366,10.65555,GRA
DE-Meh,Mehrstedt,51.27530556,10.65547222,MF
DE-Msr,Mooseurach,47.809181,11.456168,ENF
DE-Obe,Oberbärenburg,50.78666,13.72129,ENF
DE-Okd,Oberklenkendorf,53.412597,9.092467,GRA
DE-RbW,Rottenbuch West,47.72991,10.96898,GRA
DE-Rns,Reinshof,51.49495,9.932128,CRO
DE-RuR,Rollesbroich,50.6219142,6.3041256,GRA
DE-RuS,Selhausen Juelich,50.86590702,6.447144704,CRO
DE-RuW,Wustebach,50.50492685,6.330962475,ENF
DE-Sch,Schönau,47.6,12.96666667,GRA
DE-Seh,Selhausen,50.8706233,6.44965306,CRO
DE-SfN,Schechenfilz Nord,47.806389,11.3275,WET
DE-SfS,Schechenfilz Sued,47.80629,11.32757,WET
DE-Sng,Solling,51.75813,9.59333,ENF
DE-Spw,Spreewald,51.89225,14.03369,WET
DE-Tha,Tharandt,50.96256,13.56515,ENF
DE-UtM,Uchter Moor,52.5083,8.825833,WET
DE-Wet,Wetzstein,50.4535,11.45753333,ENF
DE-Zrk,Zarnekow,53.875943,12.88901,WET
DK-Eng,Enghave,55.69052778,12.19175,GRA
DK-Fou,Foulum,56.48419952,9.587220192,CRO
DK-Gds,Gludsted Plantage,56.0737,9.3341,ENF
DK-Lva,Rimi,55.68330002,12.08329964,GRA
DK-MkA,Morke E-AR,56.38131,10.39461,CRO
DK-MkG,Morke E-PG,56.38178,10.40312,GRA
DK-MkR,Morke E-RG,56.38179,10.4006,CRO
DK-RCT,Risø Campus Tower,55.694101,12.088284,URB
DK-RCW,Risø Campus Willow,55.680682,12.101398,DBF
DK-Ris,Risbyholm,55.53027778,12.09722222,CRO
DK-SkA,Skjern W-AR,55.93777,8.44656,CRO
DK-SkG,Skjern W-PG,55.94116,8.447355,GRA
DK-Skj,Skjern,55.91273,8.40481,WET
DK-Sor,Soroe,55.4858694,11.6446444,DBF
DK-SVA,Store Vildmose N-AR,57.23313,9.84435,CRO
DK-SVG,Store Vildmose N-PG,57.22988,9.83291,GRA
DK-SVR,Store Vildmose N-RG,57.23312,9.84462,CRO
DK-Ulb,Ulborg,56.29102778,8.428027778,ENF
DK-Vng,Voulundgaard,56.0374765,9.16070962,CRO
EE-Aar,Aardlapalu grassland,58.31305,26.74388,GRA
EE-Aga,Agali Forest Station,58.287472,27.283525,DBF
EE-Hi1,Hiiesoo abandoned peat extraction,59.3505,27.1008,BSV
EE-Hi2,Hiiesoo active peat extraction,59.3519,27.1016,BSV
EE-Jvs,Järvselja,58.274211,27.309952,MF
EE-Ka1,Kasesoo abandoned peat extraction,59.1411,27.6531,BSV
EE-Ka2,Kasesoo active peat extraction,59.1459,27.6636,BSV
EE-Ka3,Kasesoo bog,59.1417,27.6778,WET
EE-Ku1,Kuresoo bog wooded,58.4736,25.2125,WET
EE-Ku2,Kuresoo bog,58.4744,25.2008,WET
EE-Lv1,Lavassaare abandoned peat extraction,58.5727,24.3819,BSV
EE-Lv2,Lavassaare drained fen,58.5719,24.3908,GRA
EE-Lv3,Lavassaare grass cultivation,58.573,24.3858,WET
EE-Mam,Maima bog,58.5791,24.4266,WET
EE-Pdv,Pudivere grassland,59.0866,26.3744,GRA
EE-Ph1,Puhatu abandoned peat extraction,59.2658,27.6316,BSV
EE-Ph2,Puhatu active peat extraction,59.2659,27.6314,BSV
EE-Pts,Pitsalu,58.56331611,24.36888762,WET
EE-Rok,Roka,58.245336,27.299731,DBF
EE-San,Sangla bog forest,58.32704,26.21819,DBF
EE-Stg,Soontaga Forest Station,58.023561,26.07074,ENF
EE-Vg1,Valgeraba bog forest,58.43507,25.23629,DBF
EE-Vg2,Valgeraba bog,58.43662,25.23675,WET
ES-Abr,Albuera,38.701839,-6.785881,SAV
ES-Agu,Aguamarga,36.940046,-2.033208,OSH
ES-Amo,Amoladeras,36.833608,-2.252318,OSH
ES-AP1,Almodóvar del Pinar 1,39.680985,-1.842411111,ENF
ES-AP2,Almodóvar del Pinar 2,39.67726984,-1.84830946,ENF
ES-CMb,Cuenca Las Majadas burned,40.25830581,-1.968060873,ENF
ES-CMu,Cuenca Las Majadas unburned,40.25206923,-1.964783374,ENF
ES-Cnd,Conde,37.914998,-3.227659,WSA
ES-CPa,Cortes de Pallas,39.22417,-0.90305,OSH
ES-Cst,Castellar,42.305014,2.033568,GRA
ES-Dnn,Doñana,36.995549,-6.513203,WSA
ES-EBn,El Bonillo,38.93706599,-2.64402303,WSA
ES-ES1,El Saler (Valencia),39.34481,-0.31999,ENF
ES-ES2,El Saler-Sueca (Valencia),39.27438,-0.31641,CRO
ES-FcO,Finca Oran,38.823638,-1.85977,CRO
ES-FtD,FuenteDuque,36.99818,-6.434566,WET
ES-Gdn,Guadiana,37.910917,-3.228444,EBF
ES-LBr,La Bertolina,42.098889,1.661389,GRA
ES-LgS,Laguna Seca,37.097936,-2.965833,OSH
ES-LJu,Llano de los Juanes,36.926594,-2.752115,OSH
ES-LM1,Majadas del Tietar North,39.94269,-5.778683,SAV
ES-LM2,Majadas del Tietar South,39.934592,-5.775881,SAV
ES-LMa,Las Majadas de Tietar (Caceres),39.94033,-5.77465,SAV
ES-Ln1,Lanjaron-Non intervention,36.972098,-3.473851,OSH
ES-Ln2,Lanjaron-Salvage logging,36.969502,-3.475819,OSH
ES-LTs,Las Tiesas Experimental Farm,39.042395,-2.089033,CRO
ES-Mcd,Moncada,39.58819,-0.39969,EBF
ES-MtN,MonteNegro,36.991805,-6.482628,CSH
ES-Mzn,Manzanera,40.089496,-0.827409,EBF
ES-Pdu,Padul,37.016975,-3.609228,WET
ES-PRt,Pla de Riart,42.063333,1.513333,GRA
ES-QdM,Quintos de Mora,39.42690514,-4.117171204,CSH
ES-SCf,Santa Clotilde forest,38.210142,-4.287495,SAV
ES-SCg,Santa Clotilde grassland,38.210163,-4.289965,SAV
ES-Srn,Sarrion,40.15,-0.838,EBF
ES-Tol,Toledo,39.86004722,-4.030063889,MF
ES-TzM,Tarazona de la Mancha,39.26597,-1.939726,CRO
ES-VDA,Vall d' Alinyà (Lleida),42.15111,1.44738,GRA
ES-Yst,Yeste,38.33893358,-2.350605236,ENF
ES-Zam,Zambrana,42.9325,-2.853055556,CRO
FI-Alk,Alkkia,62.183367,22.784233,ENF
FI-Ant,Anttila,63.16358,27.2347,CRO
FI-Hy2,Hyytiala Clear Cut,61.84385,24.30433333,BSV
FI-Hyy,Hyytiala,61.84741,24.29477,ENF
FI-Jo2,Jokioinen2,60.89903,23.5128,CRO
FI-Jo3,Jokioinen3,60.8988,23.5131,CRO
FI-Jok,Jokioinen,60.8986,23.51345,CRO
FI-Kaa,Kaamanen,69.14057,27.26985,WET
FI-Ken,Kenttarova,67.98721472,24.24301028,ENF
FI-Kmp,Kumpula,60.20289,24.9611,URB
FI-Kns,Kalevansuo,60.64683333,24.356167,ENF
FI-Kvr,Kuivajarvi,61.84662,24.2804,WAT
FI-Let,Lettosuo,60.64183,23.95952,ENF
FI-Lom,Lompolojankka,67.997239,24.209178,WET
FI-Ouk,Oulanka,66.37751734,29.30768069,WET
FI-Pap,Pappilansuo,63.13819,27.24574,CRO
FI-Qvd,Qvidja,60.295242,22.391607,CRO
FI-Sar,Särkisuo,63.15158,27.23739,CRO
FI-Si2,Siikaneva-2 Bog,61.8372,24.1967,WET
FI-Sii,Siikaneva,61.83265,24.19285,WET
FI-Skj,Siikajoki,64.7807,24.6515,WET
FI-Sod,Sodankyla,67.36238641,26.63859066,ENF
FI-Tvm,Tvärminne,59.841801,23.250271,WAT
FI-Var,Varrio,67.7549,29.61,ENF
FI-Ves,Vesijako,61.3716,25.1055,ENF
FR-Aur,Aurade,43.549649,1.106103,CRO
FR-Avi,Avignon,43.91608333,4.878055556,CRO
FR-Bil,Bilos,44.493653,-0.956092,ENF
FR-CLt,Col du Lautaret,45.0414,6.41053,GRA
FR-Cou,Couhins,44.75555556,-0.555555556,CRO
FR-EM1,Estrées-Mons A27,49.8721083,3.02065,CRO
FR-EM2,Estrees-Mons A28,49.8721083,3.02065,CRO
FR-FBn,Font-Blanche,43.24079,5.67865,MF
FR-Fgs,Fougères,48.38,-1.18,DBF
FR-Fon,Fontainebleau-Barbeau,48.476358,2.780096,DBF
FR-Gri,Grignon,48.84422,1.95191,CRO
FR-Hes,Hesse,48.6741,7.06465,DBF
FR-Lam,Lamasquere,43.496438,1.237878,CRO
FR-LBr,Le Bray,44.71711,-0.7693,ENF
FR-LGt,La Guette,47.322917,2.284102,WET
FR-Lq1,Laqueuille intensive,45.64305556,2.735833333,GRA
FR-Lq2,Laqueuille extensive,45.63919444,2.737027778,GRA
FR-Lus,Lusignan,46.4142461,0.1206518,GRA
FR-Mau,Mauzac,43.38527778,1.292222222,GRA
FR-Mej,Mejusseaume,48.1184,-1.79635,GRA
FR-MsS,Montiers sur Saulx,48.53816,5.31187,DBF
FR-Nzn,Naizin,48.005812,-2.81721,GRA
FR-OnV,Osne-le-Val,48.50846,5.213463,GRA
FR-Pue,Puechabon,43.7413,3.5957,EBF
FR-Tou,Toulouse,43.572855,1.37474,GRA
GF-Cpg,Carpagg,5.3531,-53.004,GRA
GF-Guy,Guyaflux (French Guiana),5.2787,-52.9248,EBF
GF-Nrg,Nouragues European Tropical Research Station,4.087768,-52.086228,EBF
GH-Ank,Ankasa,5.26854275,-2.69420592,EBF
GL-Dsk,Disko,69.25349,-53.51413,SNO
GL-Kbf,Kobbefjord,64.1382,-51.3784,GRA
GL-NuF,Nuuk Fen,64.130933,-51.386068,WET
GL-ZaF,Zackenberg Fen,74.481522,-20.555773,WET
GL-ZaH,Zackenberg Heath,74.473299,-20.550869,GRA
GR-HeK,Heraklion Kornarou,35.33613,25.1328,URB
GR-HeM,Heraklion Mastabas,35.32343,25.13017,URB
GR-Prt,Pertouli,39.5434,21.4989,ENF
GR-Vcs,Vocals,40.889737,24.84893,GRA
HR-Jst,Jastrebarsko oak forest,45.6194,15.6877,DBF
HU-Bug,Bugac,46.69110107,19.60129929,GRA
HU-He1,Hegyhatsal,46.955947,16.652025,CRO
HU-He2,Hegyhatsal tower 2,46.95515,16.652661,GRA
HU-Mat,Matra,47.84690094,19.72599983,GRA
HU-Spr,Sopron,47.6558725,16.4544737,DBF
IE-Ca2,Carlow  grassland,52.86758,-6.91117,GRA
IE-CaC,Carlow Conventional Tillage,52.85879167,-6.918136111,CRO
IE-CaN,Carlow No Tillage,52.85879167,-6.918136111,CRO
IE-CLa,Co. Laois,52.95,-7.25,ENF
IE-Cra,Clara Raised Bog,53.323088,-7.641774,WET
IE-Dgm,Donoughmore,51.986179,-8.753931,DBF
IE-Doa,Dooary,52.948732,7.253945,DBF
IE-Dri,Dripsey,51.9866944,-8.75180556,GRA
IE-GtF,Gurteen Farm,53.040251,-8.001742,GRA
IE-Gwr,Gowran,52.6365,-7.011306,CRO
IE-JtC,Johnstown Castle,52.298188,-6499806,GRA
IE-Kil,Killorglin - Glencar,51.96836111,-9.900305556,WET
IE-LmW,Leam West,53.45647,-9.89284,WET
IL-Yat,Yatir,31.34504459,35.05198851,ENF
IN-CRR,Central Rice Research Institute (CRRI),20.45188333,85.94026667,CRO
IS-Gun,Gunnarsholt,63.83330154,-20.2166996,DBF
IT-Amp,Amplero,41.90409927,13.60515669,GRA
IT-BCi,Borgo Cioffi,40.52375,14.95744444,CRO
IT-Be1,Beano1,46.00361,13.02556,CRO
IT-Be2,Beano2,46.00431,13.02776,CRO
IT-BFt,Bosco Fontana,45.197755,10.741966,DBF
IT-Bon,Bonis,39.47777778,16.53472222,ENF
IT-BsB,Bussoleno Bosco,45.11835,7.16198,DBF
IT-Bsn,Bussoleno,45.119313,7.16049,GRA
IT-CA1,Castel d'Asso1,42.38041111,12.02656111,DBF
IT-CA2,Castel d'Asso2,42.37721944,12.02603889,CRO
IT-CA3,Castel d'Asso 3,42.38,12.0222,DBF
IT-Cas,Castellaro,45.07004722,8.717522222,CRO
IT-CdD,Casalina di Deruta,42.950231,12.381827,CRO
IT-Cng,Cantaglia,44.71,11.53,CRO
IT-Col,Collelongo,41.84936,13.58814,DBF
IT-Cp2,Castelporziano2,41.70426559,12.35729313,EBF
IT-Cpz,Castelporziano,41.7052493,12.3761058,EBF
IT-Ctv,Castelvetrano,37.64416,12.84638,CRO
IT-Gln,Giugliano,40.94711666,14.11708888,URB
IT-Isp,Ispra ABC-IS,45.812643,8.633579,DBF
IT-La2,Lavarone2,45.9542,11.2853,ENF
IT-Lav,Lavarone,45.9562,11.28132,ENF
IT-Lec,Lecceto,43.30359,11.26975,EBF
IT-LMa,La Mandria,45.15258,7.58259,DBF
IT-Lsn,Lison,45.740481,12.750297,OSH
IT-Mal,Malga Arpaco,46.11402,11.70334,GRA
IT-MBo,Monte Bondone,46.014678,11.045831,GRA
IT-MPn,Monte Pino,41.1073,14.7416,CRO
IT-Mrs,Marsciano,42.927225,12.3651,CRO
IT-MsN,Masseria Nola,39.71472,16.27806,DBF
IT-MtM,Muntatschinig Meadow,46.687021,10.579757,GRA
IT-MtP,Muntatschinig Pasture,46.684285,10.585237,GRA
IT-Neg,Negrisia - Ponte di Piave,45.74756389,12.44673056,CRO
IT-Niv,Nivolet,45.49091,7.13943,GRA
IT-Noe,Arca di Noe - Le Prigionette,40.606176,8.151694,CSH
IT-Non,Nonantola,44.69019,11.09109,MF
IT-OVr,Osservatorio Valerio,43.912014,12.904041,URB
IT-OXm,Osservatorio Ximeniano,43.774465,11.255111,URB
IT-PCm,Parco Urbano di Capodimonte,40.8741,14.2504,EBF
IT-Pia,Pianosa,42.5838694,10.0784,OSH
IT-PT1,Parco Ticino forest,45.20087222,9.061038889,DBF
IT-Ren,Renon,46.58686,11.43369,ENF
IT-Ro1,Roccarespampani 1,42.40812,11.93001,DBF
IT-Ro2,Roccarespampani 2,42.39026,11.92093,DBF
IT-Ro3,Roccarespampani3,42.37539,11.91542,CRO
IT-Ro4,Roccarespampani4,42.37333,11.91922,CRO
IT-Rut,Rutigliano,40.993753,17.03274,CRO
IT-Sas,Sassari,40.716957,8.575956,URB
IT-SMc,San Marcellino,40.84725555,14.25781666,URB
IT-SPC,San Pietro Capofiume,44.653869,11.62277,GRA
IT-SR2,San Rossore 2,43.732022,10.29091,ENF
IT-SRo,San Rossore,43.72786111,10.28444444,ENF
IT-Ter,Terranova,40.70377778,9.398166667,MF
IT-To1,Tolfa wet,42.18967363,11.92155414,EBF
IT-To2,Tolfa dry,42.18967363,11.92155414,EBF
IT-Tol,Tolfa,42.18967,11.92155,EBF
IT-Tor,Torgnon,45.84444,7.578055,GRA
IT-TrF,Torgnon-LD,45.82376,7.56089,DNF
IT-VdA,Valle dell'Adige,46.19678,11.11354,CRO
IT-Vig,Vigevano,45.29591,8.87554,DBF
ML-AgG,Agoufou G,15.34322,-1.48067,GRA
ML-AgS,Agoufou S,15.49961667,1.390083333,
ML-Bam,Bamba,17.09838,1.4011655,
ML-Kem,Kelma,15.2237,-1.5662,DBF
NE-WaD,Wankama Degraded Fallow,13.6463167,2.64301667,CRO
NE-WaF,Wankama Fallow,13.64758138,2.63368891,CRO
NE-WaM,Wankama Millet,13.644017,2.62984816,CRO
NL-Amd,Amsterdam,52.3665,4.8929,URB
NL-Ca1,Cabauw,51.971,4.927,GRA
NL-Dij,Dijkgraaf,51.99206111,5.645944444,CRO
NL-Haa,Haastrecht,52.0036111,4.80555556,GRA
NL-Hor,Horstermeer,52.24035,5.071301,GRA
NL-Lan,Langerak,51.95360184,4.902900219,CRO
NL-Lel,Lelystad,52.52423818,5.551615935,GRA
NL-Loo,Loobos,52.16644722,5.74355,ENF
NL-Lut,Lutjewad,53.39892222,6.356027778,CRO
NL-Mol,Molenweg,51.65,4.63908333,CRO
NL-Re1,Reeuwijk 1,51.9,4.5,GRA
NL-Re2,Reeuwijk 2,51.9,4.5,GRA
NL-Vre,Vredepeel,51.53166667,5.844111111,CRO
NL-Waa,Oostwaard,52.83159444,4.909122222,CRO
NL-Wgn,Wageningen,51.981,5.619,GRA
NL-Zee,Zeewolde,52.33480278,5.372588889,CRO
NO-And,Andøya,69.14278,16.02222,WET
NO-Fns,Finse,60.594,7.527,OSH
NO-Hur,Hurdal,60.37163292,11.07948988,
PA-SPn,Sardinilla Plantation,9.318139833,-79.6346,DBF
PA-SPs,Sardinilla-Pasture,9.313779833,-79.63142983,GRA
PH-RIf,Philippines Rice Institute flooded,14.14119,121.26526,CRO
PH-RIn,Philippines Rice Institute not-flooded,14.14503,121.26094,CRO
PL-Ans,Annoslaw,51.750319,20.41762,CRO
PL-Bdg,Bydgoszcz,53,17.96,GRA
PL-Brd,Brody,52.434181,16.299523,CRO
PL-Kpt,Kopytkowo,53.591854,22.892385,WET
PL-Krk,Krakow,50.067021,19.912977,URB
PL-Lz1,Lodz1,51.762514,19.445326,URB
PL-Lz2,Lodz2,51.773307,19.480993,URB
PL-Lz3,Lodz3,51.800143,19.411944,URB
PL-Pol,Polana,48.63333333,19.53333333,
PL-Tcz,Tuczno,53.19295,16.09748333,ENF
PL-wet,Rzecin (PolWet),52.7623,16.3095,WET
PL-Wlw,Wieclawice,52.84,18.31,CRO
PT-Cor,Coruche,39.13841389,-8.33268889,EBF
PT-Esp,Espirra,38.63940048,-8.601799965,EBF
PT-Mi1,Mitra II (Evora),38.54063889,-8.000055556,EBF
PT-Mi2,Mitra IV (Tojal),38.47650146,-8.024550438,GRA
RU-Ch2,Cherski reference,68.61689,161.35089,WET
RU-Che,Cherski,68.61304,161.34143,WET
RU-Cok,Chokurdakh,70.82913889,147.4942778,OSH
RU-Fy2,Fyodorovskoye dry spruce stand,56.447603,32.901878,ENF
RU-Fy3,Fyodorovskoye Clear-cut,56.4435,33.0478,ENF
RU-Fy4,Fyodorovskoye bog,56.4727,33.0413,WET
RU-Fyo,Fyodorovskoye,56.4615278,32.9220833,ENF
RU-Ha1,Hakasia steppe,54.72517,90.00215,GRA
RU-Ha2,Hakasia 5yr,54.77301,89.95664,GRA
RU-Ha3,Hakasia 10 yr,54.70455,90.07785,GRA
RU-Krg,Kurungnakh,72.298333,126.173333,WAT
RU-KsC,Kaskara Crop,57.25146,65.96931,CRO
RU-KsG,Kaskara Grass,57.2528,65.99321,GRA
RU-Ndm,Nadym,65.185,72.525,GRA
RU-Sam,Samoylov,72.3738,126.4958,GRA
RU-SkP,Yakutsk Spasskaya Pad larch,62.255,129.168,DNF
RU-Tks,Tiksi,71.594267,128.887817,GRA
RU-UPo,Ust Pojeg,61.93412778,50.22690278,ENF
RU-Uts,Uteshevo,57.154907,65.343002,GRA
RU-Vrk,Seida/Vorkuta,67.05467987,62.94046783,CSH
RU-Ypn,Yakutsk Pine,62.2414,129.6506,DNF
RU-Zbo,Zotino Bog,60.75,89.3833,ENF
RU-Zfw,Zotino forest West,60.75,89.3833,ENF
RU-Zot,Zotino,60.80080032,89.35079956,WSA
SD-Dem,Demokeya,13.2829,30.4783,SAV
SE-Asa,Asa,57.17226111,14.8001,ENF
SE-Deg,Degero,64.182029,19.556539,WET
SE-Ers,Erssjön,58.37112,12.16125,WAT
SE-Faj,Fäjemyr,56.26546944,13.55351389,WET
SE-Fla,Flakaliden,64.11277777,19.45694444,ENF
SE-Fos,Följesjön,58.37577,12.15399,WET
SE-Htm,Hyltemossa,56.09763,13.41897,ENF
SE-Kno,Knottåsen,60.99825,16.21727778,ENF
SE-Lnn,Lanna,58.34062958,13.10176754,CRO
SE-Myc,Mycklemossen,58.36503,12.1694,WET
SE-Nor,Norunda,60.08649722,17.47950278,ENF
SE-Oes,Oestergarnsholm,57.4301,18.98415,WAT
SE-Ros,Rosinedal-3,64.1725,19.738,ENF
SE-Sgr,Skogaryd,58.363853,12.14973,ENF
SE-Sk1,Skyttorp 1,60.125,17.91805556,ENF
SE-Sk2,Skyttorp 2,60.12966667,17.84005556,ENF
SE-St1,Stordalen grassland,68.3541488,19.050333,WET
SE-St2,Stordalen forest,68.35424444,19.04714444,DBF
SE-Sto,Stordalen Palsa Bog (ICOS),68.35594288,19.04520892,WET
SE-Svb,Svartberget,64.25611,19.7745,ENF
SG-TKr,Telok Kurau,1.314294,103.911197,URB
SJ-Adv,Adventdalen,78.186,15.923,WET
SJ-Blv,Bayelva Spitsbergen,78.92163086,11.83108521,BSV
SK-Ta1,Tatra Jamy,49.15833333,20.26111111,ENF
SK-Ta2,Tatra Vysne Hagy,49.12638889,20.10777778,ENF
SK-Tat,Tatra Danielov Dom,49.1207778,20.1635,ENF
SN-Dhr,Dahra,15.40278,-15.43222,SAV
SN-Nkr,Niakhar,14.49581,-16.45357,CRO
UA-Pet,Petrodolinskoe,46.45614,30.33609,CRO
UG-Jin,Jinja,0.4,33.18333333,WET
UK-AMo,Auchencorth Moss,55.792546,-3.2436918,WET
UK-Arn,Arnol,58.322834,-6.600454,WET
UK-Bam,Balmoral,56.93,-3.16,WET
UK-BBB,Bishop's Burton Bioenergy,53.86104,-0.4909216,CRO
UK-BBC,Bishop's Burton Cropland,53.86088,-0.4865083,CRO
UK-BnB,Ballynahone Bog,54.82326,-6.669835,WET
UK-BtB,Beltie Burn,57.09048056,-2.597247222,WET
UK-CLs,Cross Lochs,58.370674,-3.9639542,WET
UK-Cst,Cockshutts,53.84995,-2.773793,CRO
UK-Dke,Dyke,58.427264,-3.968809,WET
UK-DkF,Dyke-FIRE,58.431141,-3.9702661,WET
UK-EBu,Easter Bush,55.866,-3.205777778,GRA
UK-Ech,Elchies,57.505657,-3.3087757,WET
UK-EHd,East Hendred Control,51.583199,-1.322469,CRO
UK-ESa,East Saltoun,55.9069444,-2.85861111,CRO
UK-GaB,Garry Bog,55.10994,-6.529928,WET
UK-Gnn,Glenullin,54.96185,-6.760763,WET
UK-Gri,Griffin,56.6072222,-3.79805556,ENF
UK-Gst,Girlsta,60.230296,-1.240111,WET
UK-GtF,Great Fen,52.470689,-0.192668,GRA
UK-Gwr,Glenwherry,54.85464,-5.988278,WET
UK-Ham,Hampshire,51.153533,-0.8583,DBF
UK-Har,Harwood,55.21272222,-2.037527777,ENF
UK-Her,Hertfordshire,51.78379822,-0.47608,CRO
UK-LBT,London_BT,51.5215,-0.1389,URB
UK-Lns,Lonielist,58.391024,-3.765051,WET
UK-MrH,Moor House,54.695035,-2.388234,WET
UK-Myg,Myerscough,53.854618,-2.779574,GRA
UK-PL1,Pang/Lambourne crop,51.53329849,-1.483330011,CRO
UK-PL2,Pang/Lambourne grassland,51.43330002,-1.233330011,GRA
UK-PL3,Pang/Lambourne forest,51.45,-1.266666667,DBF
UK-Png,Penglais_EC1,52.422332,-4.068402,CRO
UK-Po1,Pollybell GGR1,53.45704,-0.9139667,GRA
UK-Po2,Pollybell GGR2,53.45905,-0.9082767,GRA
UK-Po3,Pollybell GGR3,53.45659,-0.910275,GRA
UK-Pob,Pollybell,53.430831,-0.922198,CRO
UK-Rdm,Redmere 2,52.442948,0.419533,CRO
UK-Rsh,Riseholme,53.25981,-0.5257917,CRO
UK-Stm,Stretham,52.331415,0.224473,CRO
UK-Swt,Sawtry,52.435915,-0.259556,CRO
UK-Tad,Tadham Moor,51.20709991,-2.828639984,GRA
UK-WdC,Waddesdon Control,51.82715,-0.948449,CRO
UK-Wdd,Waddesdon,51.830757,-0.950881,CRO
UK-Wot,Woodwalton,52.459926,-0.184811,GRA
UK-WsL,West Lochhills,57.582244,-1.9821112,GRA
ZA-Kru,Skukuza,-25.0197,31.4969,SAV
ZA-Map,Malopeni,-23.83254,31.21436,SAV
ZA-Wgn,Welgegund,-26.56944444,26.93916667,GRA
ZM-Mon,Mongu,-15.4391,23.2525,DBF
